City,Latitude,Longitude,Max_Temp,Humidity,Cloudiness,Wind_Speed,Country
Oparino,59.8518,48.2783,1.87,97,100,3.78,RU
Bluff,-46.6,168.3333,7.78,80,56,2.68,NZ
Cherskiy,68.75,161.3,-5.89,83,60,3.75,RU
Boyolangu,-8.1181,111.8935,23.69,92,45,0.82,ID
Albany,42.6001,-73.9662,10.56,31,4,4.92,US
Cabo San Lucas,22.8909,-109.9124,26.0,56,90,6.17,MX
Bredasdorp,-34.5322,20.0403,11.0,93,30,0.51,ZA
Olafsvik,64.8945,-23.7142,5.67,64,0,1.6,IS
Hasaki,35.7333,140.8333,11.67,62,20,2.06,JP
Avarua,-21.2078,-159.775,28.0,74,20,2.57,CK
Naze,28.3667,129.4833,20.0,64,20,3.6,JP
Talnakh,69.4865,88.3972,-11.49,80,92,4.02,RU
Flinders,-34.5833,150.8552,17.22,88,1,0.45,AU
George Town,5.4112,100.3354,26.0,89,40,2.06,MY
Arman',59.7,150.1667,-5.08,74,15,1.12,RU
Faanui,-16.4833,-151.75,27.38,66,93,1.79,PF
Westport,41.1415,-73.3579,16.0,18,1,6.69,US
Omsukchan,62.5333,155.8,-7.62,80,10,2.21,RU
Vanimo,-2.6741,141.3028,27.96,73,20,1.41,PG
East London,-33.0153,27.9116,20.32,77,96,3.94,ZA
Tulun,54.5611,100.5792,0.82,91,100,2.74,RU
Mataura,-46.1927,168.8643,7.78,80,97,2.68,NZ
Gambēla,8.25,34.5833,21.82,86,100,0.78,ET
Rikitea,-23.1203,-134.9692,25.38,73,79,3.33,PF
Black River,18.0264,-77.8487,29.44,70,20,3.6,JM
Petrolina de Goiás,-16.095,-49.3381,27.0,73,40,0.87,BR
Ushuaia,-54.8,-68.3,7.0,81,75,1.54,AR
Busselton,-33.65,115.3333,13.33,93,100,0.83,AU
Punta Arenas,-53.15,-70.9167,7.0,93,90,2.57,CL
Tottori-shi,35.5,134.2333,8.0,61,0,3.09,JP
College,64.8569,-147.8028,14.0,26,75,3.21,US
Geraldton,-28.7667,114.6,16.0,59,29,4.63,AU
Port Elizabeth,-33.918,25.5701,17.0,94,75,2.57,ZA
Sonoita,31.85,-112.8333,23.33,24,100,0.89,MX
Tres Arroyos,-38.3739,-60.2798,13.69,71,0,3.09,AR
Sheridan,44.8333,-106.9173,7.22,87,90,3.6,US
Chokurdakh,70.6333,147.9167,-4.82,86,99,2.03,RU
Tautira,-17.7333,-149.15,30.0,66,40,4.63,PF
Barrow,71.2906,-156.7887,-6.0,79,1,8.75,US
Hithadhoo,-0.6,73.0833,27.95,64,10,2.16,MV
Guánica,17.9716,-66.908,25.0,76,31,2.58,PR
Vrangel',42.7297,133.0839,7.62,73,76,1.72,RU
Dikson,73.5069,80.5464,-0.1,98,100,7.64,RU
Cayenne,4.9333,-52.3333,25.56,94,75,2.57,GF
Ponta do Sol,32.6667,-17.1,16.11,79,78,0.45,PT
Puri,19.8,85.85,28.0,89,75,4.63,IN
Kisangani,0.5167,25.2,21.11,90,41,0.26,CD
Butaritari,3.0707,172.7902,28.43,76,87,5.82,KI
Hong Kong,22.2855,114.1577,23.89,88,100,7.14,HK
Yellowknife,62.456,-114.3525,-11.67,52,40,6.17,CA
Atuona,-9.8,-139.0333,26.6,75,79,6.56,PF
Narsaq,60.9167,-46.05,3.0,87,75,1.54,GL
Ndioum,16.5129,-14.6471,31.0,33,0,1.03,SN
Khatanga,71.9667,102.5,-6.81,94,100,7.06,RU
Vaini,-21.2,-175.2,25.0,94,75,4.12,TO
Yulara,-25.2406,130.9889,13.0,50,0,3.6,AU
Kiama,-34.6833,150.8667,17.22,84,1,0.89,AU
Yining,29.0361,114.5636,15.82,97,100,0.66,CN
Courbevoie,48.8967,2.2567,11.67,40,0,5.14,FR
Campana,-34.1687,-58.9591,16.67,72,54,1.44,AR
Kapaa,22.0752,-159.319,26.0,65,1,5.66,US
Lagoa,39.05,-27.9833,15.43,89,92,4.65,PT
Whitianga,-36.8333,175.7,16.67,93,46,0.89,NZ
Carnarvon,-24.8667,113.6333,17.0,67,0,2.57,AU
Meulaboh,4.1363,96.1285,24.82,89,99,1.51,ID
Kushmurun,52.4503,64.6311,8.68,91,100,2.43,KZ
Akureyri,65.6835,-18.0878,2.0,80,0,2.06,IS
Lucapa,-8.4192,20.7447,20.13,88,92,0.53,AO
Sobolevo,54.4299,31.8996,-0.94,77,13,2.08,RU
Dakar,14.6937,-17.4441,20.0,94,35,6.17,SN
Chui,-33.6971,-53.4616,13.42,74,8,3.6,UY
Eidsvoll,60.3305,11.2616,-0.56,64,0,3.09,NO
Bethel,41.3712,-73.414,15.0,18,1,7.2,US
Pevek,69.7008,170.3133,-5.16,90,99,2.14,RU
Lompoc,34.6391,-120.4579,16.0,44,1,8.75,US
Hermanus,-34.4187,19.2345,16.67,84,68,2.23,ZA
Cape Town,-33.9258,18.4232,17.22,88,75,6.69,ZA
Waddān,29.1614,16.139,21.85,24,7,5.64,LY
Kailua,21.4022,-157.7394,27.0,54,20,3.6,US
Rocha,-34.4833,-54.3333,11.99,80,0,2.68,UY
Baijiantan,45.6333,85.1833,10.24,30,43,0.93,CN
Saint-Augustin,51.226,-58.6502,3.41,80,100,14.71,CA
Korla,41.7597,86.1469,11.97,34,13,2.59,CN
Mushābani,22.5167,86.45,26.41,38,89,1.88,IN
Mehamn,71.0357,27.8492,-0.18,65,98,5.77,NO
Labuhan,-6.8844,112.2051,24.98,84,58,2.84,ID
Ponta Delgada,37.7333,-25.6667,16.0,77,75,3.09,PT
Pisco,-13.7,-76.2167,20.0,83,0,3.6,PE
Hobart,-42.8794,147.3294,12.22,76,20,2.57,AU
Harper,4.375,-7.7169,27.0,82,20,3.24,LR
Puerto Ayora,-0.7393,-90.3518,24.87,81,38,3.44,EC
Cabra,37.4725,-4.4421,14.44,80,100,1.4,ES
Tuktoyaktuk,69.4541,-133.0374,-12.0,72,1,5.66,CA
Srednekolymsk,67.45,153.6833,-3.9,74,30,2.72,RU
Musoma,-1.5,33.8,21.0,94,75,2.48,TZ
Grindavik,63.8424,-22.4338,5.0,87,20,2.06,IS
New Norfolk,-42.7826,147.0587,12.22,72,12,1.36,AU
Zatoka,46.0725,30.4654,6.0,87,0,1.0,UA
Kloulklubed,7.0419,134.2556,26.0,89,75,2.77,PW
Shenjiamen,29.9576,122.298,16.38,88,78,4.26,CN
Jamestown,42.097,-79.2353,10.56,40,90,3.09,US
Nikolskoye,59.7035,30.7861,5.0,75,75,3.0,RU
Deputatsky,69.3,139.9,-2.97,90,100,0.92,RU
Saint Paul Harbor,57.79,-152.4072,7.0,76,90,4.63,US
Nome,64.5011,-165.4064,7.0,57,1,2.06,US
Mount Gambier,-37.8333,140.7667,12.0,82,75,3.09,AU
Egvekinot,66.3167,-179.1667,-3.98,87,27,0.85,RU
Siocon,7.7061,122.1353,26.78,78,95,1.6,PH
Isabela,6.7085,121.9711,24.0,94,40,0.51,PH
Fort Nelson,58.8053,-122.7002,-3.0,74,90,5.14,CA
Saint Anthony,45.0205,-93.218,8.33,81,90,4.63,US
Seguin,29.5688,-97.9647,31.0,35,1,7.2,US
Lüderitz,-26.6481,15.1594,15.82,86,82,3.32,NA
Zhigansk,66.7697,123.3711,-9.84,88,100,7.74,RU
Launceston,-41.45,147.1667,7.78,87,33,3.09,AU
Champerico,14.3,-91.9167,31.0,70,40,4.12,GT
Gamba,-2.65,10.0,25.73,89,93,2.1,GA
Faya,18.3851,42.4509,15.0,82,0,1.59,SA
Zeya,53.75,127.2667,10.7,59,100,5.42,RU
Provideniya,64.3833,-173.3,3.0,70,0,1.94,RU
Ginir,7.1333,40.7,14.24,88,100,1.52,ET
Mahébourg,-20.4081,57.7,26.0,83,75,5.66,MU
Saint-Philippe,-21.3585,55.7679,25.0,78,90,9.77,RE
Nabire,-3.3667,135.4833,26.99,74,63,0.99,ID
Arrondissement de Thiers,45.8333,3.5,11.0,76,0,1.03,FR
Castro,-24.7911,-50.0119,16.81,74,60,1.46,BR
Central Point,42.376,-122.9164,15.0,35,20,3.09,US
Katsuura,35.1333,140.3,11.67,54,40,2.57,JP
Talavera,15.6167,120.9333,25.0,78,75,1.03,PH
Marsh Harbour,26.5412,-77.0636,23.89,68,0,7.15,BS
Mar del Plata,-38.0023,-57.5575,15.56,77,0,2.57,AR
Yerbogachën,61.2767,108.0108,-7.88,78,11,3.58,RU
Sayyan,15.1718,44.3244,14.12,66,100,0.75,YE
Lubao,14.9167,120.55,25.0,78,75,1.03,PH
Haines Junction,60.7522,-137.5108,14.0,21,54,2.06,CA
Saldanha,-33.0117,17.9442,17.0,94,80,9.26,ZA
Atamanskaya,46.1773,39.6358,5.0,97,34,4.35,RU
Atar,20.5169,-13.0499,27.85,17,35,2.48,MR
Clarence Town,-32.5833,151.7833,16.11,94,40,4.63,AU
Awjilah,29.1081,21.2869,20.48,32,4,2.57,LY
Pacific Grove,36.6177,-121.9166,14.44,76,2,0.45,US
Portland,45.5234,-122.6762,15.0,67,75,2.06,US
Aklavik,68.2191,-135.0107,-6.0,45,100,3.6,CA
Tokmak,47.2514,35.7058,2.83,78,3,1.97,UA
Khovd,48.0056,91.6419,-0.23,32,38,0.55,MN
Lavrentiya,65.5833,-171.0,0.08,87,94,1.02,RU
Lebu,-37.6167,-73.65,12.53,86,3,4.54,CL
Qaanaaq,77.484,-69.3632,4.01,70,93,3.17,GL
Shimoda,34.6667,138.95,12.78,48,97,0.45,JP
Alofi,-19.0595,-169.9187,29.0,74,38,4.63,NU
Lumby,50.2498,-118.969,19.44,22,61,2.06,CA
Hofn,64.2539,-15.2082,3.58,73,18,1.59,IS
Kumul,42.8,93.45,8.04,18,3,3.35,CN
Xuanzhou,30.9525,118.7553,15.8,97,100,2.8,CN
Turbat,26.0023,63.044,30.25,28,10,1.74,PK
Rossland,49.0831,-117.8022,10.0,40,92,3.13,CA
Saskylakh,71.9167,114.0833,-14.89,95,96,2.0,RU
Wanning,18.8003,110.3967,25.3,88,100,1.8,CN
Arraial do Cabo,-22.9661,-42.0278,25.0,83,40,2.06,BR
Te Anau,-45.4167,167.7167,5.91,78,72,0.3,NZ
Pak Phanang,8.3511,100.202,25.95,84,88,2.01,TH
Lata,40.1629,-8.3327,15.0,94,31,0.63,PT
Erenhot,43.6475,111.9767,3.39,39,83,7.55,CN
Belaya Gora,68.5333,146.4167,-4.63,78,99,2.88,RU
Ilulissat,69.2167,-51.1,9.0,46,75,5.66,GL
Beira,-19.8436,34.8389,22.93,91,3,3.82,MZ
Diffa,13.3154,12.6113,30.98,10,1,3.77,NE
Cairns,-16.9167,145.7667,25.56,83,90,5.14,AU
City of San Pedro,14.35,121.0167,27.22,78,40,2.57,PH
Paamiut,61.994,-49.6678,1.45,91,72,2.56,GL
Esim,4.8699,-2.2405,27.21,87,70,3.29,GH
Thompson,55.7435,-97.8558,10.0,43,40,5.14,CA
Livingstone,-17.8419,25.8543,20.4,58,61,1.75,ZM
Salinópolis,-0.6136,-47.3561,26.35,82,99,4.22,BR
Port Alfred,-33.5906,26.891,19.19,84,99,4.54,ZA
Bahía Blanca,-38.7196,-62.2724,16.04,57,1,2.83,AR
Carutapera,-1.195,-46.02,25.05,87,97,2.78,BR
Eureka,40.8021,-124.1637,13.33,71,1,4.63,US
Iqaluit,63.7506,-68.5145,-4.0,80,90,10.8,CA
Sühbaatar,50.2314,106.2078,1.71,67,74,2.11,MN
Palauig,15.435,119.9045,26.63,70,72,1.22,PH
Kupang,-10.1667,123.5833,23.37,72,82,2.75,ID
Gangāpur,26.4833,76.7167,26.66,7,0,0.79,IN
Tasiilaq,65.6145,-37.6368,5.0,65,75,3.47,GL
Port Hawkesbury,45.6169,-61.3485,7.22,93,90,5.14,CA
Padang,-0.9492,100.3543,24.0,94,20,0.51,ID
Passau,48.5712,13.449,4.44,57,51,2.63,DE
Isangel,-19.55,169.2667,27.0,78,40,2.57,VU
Gudalur,9.6833,77.2667,22.85,92,23,1.69,IN
Mīzan Teferī,6.9833,35.5833,14.63,94,100,1.54,ET
Lastoursville,-0.8143,12.7287,24.11,93,79,0.77,GA
Upernavik,72.7868,-56.1549,1.95,81,65,2.03,GL
Vardø,70.3705,31.1107,-2.0,74,20,5.14,NO
Laguna,38.421,-121.4238,20.0,31,1,1.54,US
Ørje,59.4802,11.6602,2.78,79,8,1.1,NO
Vostok,46.4856,135.8833,8.87,33,31,1.37,RU
Bam,29.106,58.357,24.55,21,45,2.55,IR
Uyuni,-20.4597,-66.825,6.87,20,0,2.96,BO
Kaitangata,-46.2817,169.8464,6.67,84,70,2.68,NZ
Mirny,62.5353,113.9611,-10.3,78,41,4.28,RU
Hilo,19.7297,-155.09,26.0,57,90,4.12,US
San-Pédro,4.7485,-6.6363,27.4,83,28,3.47,CI
Saint-Pierre,-21.3393,55.4781,25.0,78,90,9.77,RE
Vagay,57.9375,69.0217,3.48,63,60,3.0,RU
Pucallpa,-8.3791,-74.5539,22.0,94,75,3.6,PE
Great Falls,47.5002,-111.3008,13.89,32,75,3.09,US
Shebunino,46.4339,141.8603,6.22,76,8,2.76,RU
Richards Bay,-28.783,32.0377,18.65,93,42,2.59,ZA
Ellensburg,46.9965,-120.5479,16.11,35,7,8.94,US
Bull Savanna,17.8868,-77.5902,24.96,74,66,1.03,JM
Rupert,42.6191,-113.6772,9.0,57,40,5.14,US
Bentong,3.5181,101.9079,24.44,94,20,1.54,MY
Hambantota,6.1241,81.1185,26.25,84,65,3.2,LK
Misratah,32.3754,15.0925,18.85,74,61,10.47,LY
Tierralta,8.1736,-76.0592,26.77,85,86,3.96,CO
Vyshneve,50.3891,30.3705,3.33,86,83,2.0,UA
Erdenet,49.0333,104.0833,-2.07,56,4,2.14,MN
Pāsighāt,28.0667,95.3333,21.99,42,23,2.07,IN
Hamilton,39.1834,-84.5333,24.0,31,1,5.66,US
Port Hedland,-20.3167,118.5667,20.0,34,1,4.63,AU
Henties Bay,-22.116,14.2845,16.11,89,16,4.11,NA
Yerofey Pavlovich,53.9667,121.9667,6.64,80,92,3.67,RU
Praia da Vitória,38.7333,-27.0667,16.11,88,75,3.61,PT
Quatre Cocos,-20.2078,57.7625,26.0,83,75,5.66,MU
Vilhena,-12.7406,-60.1458,23.0,88,75,3.09,BR
Tulum,20.2167,-87.4667,30.0,58,40,3.09,MX
Touros,-5.1989,-35.4608,26.0,83,20,3.6,BR
Ancud,-41.8697,-73.8203,14.44,82,75,3.6,CL
Avera,33.194,-82.5271,25.0,38,1,1.54,US
Mildura,-34.2,142.15,8.0,81,74,2.06,AU
Itororó,-15.1169,-40.0703,21.96,82,24,2.05,BR
Longyearbyen,78.2186,15.6401,-7.0,63,40,4.63,SJ
Kindu,-2.95,25.95,21.7,91,62,1.04,CD
San Felipe,10.3399,-68.7425,23.38,89,97,2.87,VE
Boden,65.8252,21.6886,1.0,69,90,2.06,SE
Tonantins,-2.8731,-67.8022,24.03,97,96,1.44,BR
Carupano,10.6678,-63.2585,25.48,84,98,6.02,VE
Guerrero Negro,27.9769,-114.0611,17.84,57,97,7.26,MX
Mūvattupula,9.9667,76.5833,25.0,88,40,1.03,IN
Norman Wells,65.282,-126.8329,-9.0,53,75,4.12,CA
Kathmandu,27.7167,85.3167,16.0,63,20,1.54,NP
Mokhsogollokh,61.4681,128.9203,0.93,98,100,1.49,RU
Sitka,57.0531,-135.33,10.0,76,1,1.54,US
Port-Gentil,-0.7193,8.7815,28.0,83,40,2.06,GA
Tekeli,44.83,78.8239,5.97,29,22,5.11,KZ
Nemuro,43.3236,145.575,2.53,70,16,3.75,JP
Laguna de Perlas,12.3429,-83.6712,28.0,78,40,2.06,NI
Invermere,50.5167,-116.0354,12.22,38,96,0.89,CA
Airai,-8.9266,125.4092,16.01,64,63,0.87,TL
Dumai,1.6833,101.45,23.14,98,100,0.95,ID
Tiksi,71.6872,128.8694,-8.78,91,100,5.36,RU
Ekhabi,53.5102,142.9671,-0.14,79,16,6.16,RU
Severo-Kuril'sk,50.6789,156.125,-0.4,96,100,9.67,RU
Anloga,5.7947,0.8973,29.0,84,40,3.6,GH
Bambous Virieux,-20.3428,57.7575,26.0,83,75,5.66,MU
Prince George,53.9166,-122.753,17.78,17,1,5.66,CA
Kavaratti,10.5669,72.642,28.76,74,2,3.5,IN
Cochrane,51.1834,-114.4687,13.33,24,40,5.66,CA
Ribeira Grande,38.5167,-28.7,15.94,84,100,1.42,PT
Iracoubo,5.4802,-53.2011,25.22,88,100,4.94,GF
Griffith,41.5284,-87.4237,25.0,33,1,9.77,US
Souillac,-20.5167,57.5167,26.0,83,75,5.66,MU
Nouadhibou,20.931,-17.0347,19.0,88,0,5.66,MR
Kununurra,-15.7667,128.7333,22.0,88,40,2.39,AU
Aden,12.7794,45.0367,28.63,71,94,1.86,YE
Sakakah,29.9697,40.2064,24.0,20,0,8.23,SA
Touba,8.2833,-7.6833,23.31,85,98,1.26,CI
San Francisco,37.7749,-122.4194,15.0,67,41,3.13,US
Alyangula,-13.8483,136.4192,25.0,100,99,2.06,AU
Kruisfontein,-34.0033,24.7314,17.22,85,77,1.79,ZA
San Ignacio,17.1561,-89.0714,37.0,34,20,3.09,BZ
Mossamedes,-15.1961,12.1522,23.93,73,1,3.3,AO
Kokopo,-4.352,152.2633,28.26,68,17,0.35,PG
Oranjestad,12.524,-70.027,28.0,74,20,8.75,AW
Mount Isa,-20.7333,139.5,26.0,50,43,4.63,AU
Mizoch,50.4,26.15,0.0,88,90,2.04,UA
Vytegra,61.0064,36.4481,1.43,98,100,2.85,RU
Abu Kamal,34.4506,40.9171,22.35,30,37,5.33,SY
Werda,-25.2667,23.2833,19.17,22,37,3.18,BW
Meïganga,6.5167,14.3,21.63,63,72,1.09,CM
Maniitsoq,65.4167,-52.9,0.72,98,100,3.96,GL
Māngrol,21.1167,70.1167,26.61,80,6,5.2,IN
Ambilobe,-13.2,49.05,21.85,94,14,1.43,MG
Camacha,33.0833,-16.3333,17.0,82,40,5.14,PT
Bedēsa,8.9,40.7833,15.87,90,100,0.92,ET
San Miguel de Cozumel,20.5083,-86.9458,30.0,58,40,3.09,MX
Torbay,47.6666,-52.7314,5.0,65,90,10.29,CA
Xining,36.6167,101.7667,3.02,50,91,1.61,CN
Matara,5.9485,80.5353,25.35,88,94,1.23,LK
Ocós,14.5094,-92.1933,32.0,74,75,4.12,GT
Port Hardy,50.6996,-127.4199,12.0,76,40,4.12,CA
Kongolo,-5.3833,27.0,21.73,94,99,1.11,CD
San Juan de los Morros,9.9115,-67.3538,0.0,48,100,0.65,VE
Kichera,55.9375,110.0997,-1.77,64,36,4.08,RU
Katangli,51.7102,143.2326,0.1,70,16,3.87,RU
Bandarbeyla,9.4942,50.8122,28.18,73,87,2.17,SO
Chapais,49.7834,-74.8492,2.0,69,90,5.66,CA
Auki,-8.7676,160.7034,29.22,72,80,1.15,SB
São Filipe,14.8961,-24.4956,22.11,76,15,4.37,CV
Amahai,-3.3333,128.9167,26.67,95,35,0.89,ID
Davidson,36.1501,-86.7833,25.0,38,1,5.14,US
Kahului,20.8947,-156.47,28.0,57,40,6.69,US
Kargasok,59.0556,80.8572,2.15,93,94,4.24,RU
Poindimié,-20.9333,165.3333,24.51,66,4,2.46,NC
Taoudenni,22.6783,-3.9836,33.31,13,29,5.15,ML
Llanes,43.4198,-4.7549,14.44,97,100,2.24,ES
Ilhabela,-23.7781,-45.3581,22.78,82,87,1.39,BR
Makakilo City,21.3469,-158.0858,27.0,57,1,4.12,US
Tambacounda,13.7539,-13.7586,35.0,20,4,2.06,SN
Sīra,13.7453,76.9092,25.51,67,0,4.03,IN
Innisfail,-17.5333,146.0333,23.15,84,99,4.46,AU
Hay River,60.8156,-115.7999,-13.0,66,100,3.6,CA
San Patricio,28.017,-97.5169,26.67,69,90,6.69,US
Oistins,13.0667,-59.5333,27.0,57,40,6.69,BB
Kalmunai,7.4167,81.8167,25.71,84,25,3.85,LK
Biak,-0.9131,122.8766,25.49,80,75,2.25,ID
Aquiraz,-3.9014,-38.3911,28.0,78,20,3.09,BR
Raudeberg,61.9875,5.1352,2.78,77,95,2.05,NO
Lensk,60.7253,114.9278,-7.01,82,82,3.58,RU
Burnie,-41.0667,145.9167,12.78,70,9,4.47,AU
Sur,22.5667,59.5289,29.76,36,43,4.84,OM
Guangyuan,32.442,105.823,14.97,75,100,1.29,CN
Baruun-Urt,46.6806,113.2792,0.74,48,19,9.15,MN
San Vicente,-26.6167,-54.1333,11.55,68,0,1.47,AR
Blackwater,-23.5833,148.8833,21.72,57,2,3.68,AU
Qeshm,26.9581,56.2719,27.0,64,1,3.09,IR
Dingle,10.9995,122.6711,25.89,78,52,3.44,PH
Pitimbu,-7.4706,-34.8086,25.0,94,20,4.12,BR
Banda Aceh,5.5577,95.3222,26.51,79,88,0.86,ID
Plettenberg Bay,-34.0527,23.3716,15.2,93,59,2.35,ZA
Jimeta,9.2833,12.4667,34.51,30,56,1.05,NG
Magistral'nyy,56.1725,107.4458,-4.1,76,42,4.86,RU
Kiryat Gat,31.61,34.7642,17.78,100,69,2.66,IL
Uíge,-7.6087,15.0613,19.97,94,87,1.04,AO
Lermontovka,47.1453,134.3383,10.31,35,77,5.39,RU
White Settlement,32.7596,-97.4584,27.0,44,1,8.75,US
Dzilam González,21.2833,-88.9333,29.9,60,73,4.61,MX
Lumphat,13.4878,106.9816,24.79,87,100,1.38,KH
Alekseyevsk,57.8406,108.3492,-4.69,82,100,3.68,RU
Parbhani,19.2667,76.7833,28.83,33,99,2.59,IN
Buala,-8.145,159.5921,28.41,77,93,3.06,SB
Orlik,52.5178,99.825,-8.65,91,37,0.93,RU
Rāvar,31.2656,56.8055,22.95,31,83,0.84,IR
Opuwo,-18.0607,13.84,17.43,57,7,1.57,NA
Prince Rupert,54.3161,-130.3201,13.0,44,1,2.57,CA
Santa Maria do Suaçuí,-18.1903,-42.4142,21.78,74,83,0.28,BR
Totness,5.8833,-56.3167,25.22,87,96,5.88,SR
Half Moon Bay,37.4636,-122.4286,16.67,71,75,6.17,US
Namatanai,-3.6667,152.4333,29.14,68,56,1.45,PG
Salalah,17.0151,54.0924,28.0,74,40,2.57,OM
Muros,42.7762,-9.0603,12.78,88,61,0.89,ES
Chumikan,54.7183,135.315,0.5,87,100,3.83,RU
Oktyabr'skiy,54.4815,53.471,4.54,61,61,0.58,RU
Saint George,37.1041,-113.5841,15.0,47,75,9.77,US
Port Augusta,-32.5,137.7667,10.0,93,0,3.09,AU
Salinas,36.6777,-121.6555,16.0,51,20,7.2,US
Leningradskiy,69.3833,178.4167,-1.04,86,38,2.14,RU
Ust-Maya,60.4167,134.5333,0.73,99,100,1.11,RU
Northam,51.0333,-4.2167,6.11,85,83,0.92,GB
Kavieng,-2.5744,150.7967,28.7,70,48,0.76,PG
Ajdabiya,30.7554,20.2263,18.33,52,28,2.66,LY
Santa Rosa,14.3122,121.1114,27.22,78,40,2.57,PH
Sosnovo-Ozerskoye,52.5249,111.5418,-1.96,75,28,8.24,RU
Imbituba,-28.24,-48.6703,21.0,60,40,4.63,BR
Gold Coast,-28.0,153.4333,22.78,68,8,3.6,AU
Yamada,39.4667,141.95,9.56,35,0,1.85,JP
Bubaque,11.2833,-15.8333,25.76,70,47,7.69,GW
São João da Barra,-21.6403,-41.0511,23.07,92,23,4.38,BR
Tezu,27.9167,96.1667,23.15,28,24,2.09,IN
Cabedelo,-6.9811,-34.8339,25.0,94,20,4.12,BR
Doka,13.5167,35.7667,25.52,60,78,5.28,SD
Changtu,42.7788,124.0955,12.13,78,100,7.34,CN
Santa Cruz,30.4202,-9.5982,17.0,88,20,2.06,MA
Kedrovyy,56.1667,91.8167,-3.0,93,87,1.83,RU
Sulphur,30.2366,-93.3774,26.11,53,1,6.17,US
Shelburne,44.0787,-80.2041,9.44,34,90,2.57,CA
Antiguo Morelos,22.5495,-99.0812,32.78,57,89,5.36,MX
Nanortalik,60.1432,-45.2371,0.98,97,97,4.33,GL
Candolim,15.5181,73.7626,29.0,84,40,1.03,IN
Comodoro Rivadavia,-45.8667,-67.5,19.0,42,0,12.35,AR
Sola,-13.8833,167.55,27.45,74,82,3.81,VU
Pierre,44.3683,-100.351,17.0,51,1,6.69,US
Pangnirtung,66.1451,-65.7125,2.0,87,90,3.09,CA
Tabou,4.423,-7.3528,27.01,84,40,3.45,CI
Shirokiy,49.758,129.523,10.35,39,90,7.1,RU
Borovoy,55.4333,86.0833,4.0,70,75,3.0,RU
Lorengau,-2.0226,147.2712,28.85,70,93,0.49,PG
Clyde River,70.4692,-68.5914,-4.0,100,75,1.54,CA
Marfino,55.7028,37.3822,3.0,60,0,1.0,RU
Urengoy,65.9667,78.3667,-1.06,93,63,5.9,RU
Ambulu,-8.345,113.6058,24.63,86,57,1.96,ID
Segezha,63.7415,34.3222,-1.4,85,82,3.77,RU
Uthal,25.8072,66.6219,26.28,73,3,0.98,PK
Oyama,36.3,139.8,15.56,53,20,2.06,JP
Anito,12.4497,125.2886,25.75,82,93,3.63,PH
Vágur,61.4732,-6.8119,4.85,79,100,11.71,FO
Kathu,7.9178,98.3332,28.33,100,75,4.26,TH
Solnechnyy,50.7214,136.6319,8.02,47,83,2.61,RU
Dunedin,-45.8742,170.5036,8.33,63,53,7.15,NZ
Douglas,41.3,-96.167,33.0,24,1,5.66,US
Kirovskiy,45.0917,133.5136,9.74,45,83,3.92,RU
Urusha,54.05,122.9,6.01,91,98,3.66,RU
Vestmannaeyjar,63.4427,-20.2734,7.11,90,12,4.17,IS
Dauriya,49.9333,116.8667,0.67,63,100,11.68,RU
Mosquera,4.7059,-74.2302,17.0,77,40,4.12,CO
Mēga,4.05,38.3,14.75,82,41,2.11,ET
Sydney,-33.8679,151.2073,18.33,77,22,3.6,AU
Yangi Marg`ilon,40.4272,71.7189,16.0,48,0,3.09,UZ
Goianésia,-15.3175,-49.1175,23.12,65,55,1.41,BR
Hargeisa,9.56,44.065,19.74,78,100,6.25,SO
Assaí,-23.3733,-50.8414,23.0,53,0,2.57,BR
Santo Domingo,18.5001,-69.9886,27.78,83,40,2.06,DO
Pangkalanbuun,-2.6833,111.6167,23.53,97,57,0.92,ID
Mutoko,-17.397,32.2268,16.97,65,5,3.26,ZW
Dukat,62.55,155.55,-7.14,73,5,2.4,RU
Casablanca,33.5928,-7.6192,20.0,88,20,3.09,MA
Río Gallegos,-51.6226,-69.2181,17.0,42,40,5.14,AR
Flin Flon,54.7682,-101.865,13.0,24,20,6.69,CA
Jalu,29.0331,21.5482,20.12,32,4,2.12,LY
Tessalit,20.1986,1.0114,32.04,8,29,3.01,ML
Snåase,64.2457,12.3778,-0.89,98,100,0.9,NO
Beisfjord,68.3751,17.5988,-1.0,93,40,3.09,NO
Kangaatsiaq,68.3065,-53.4641,0.39,95,100,10.74,GL
Ambon City,-3.6954,128.1814,24.0,88,20,4.63,ID
Barabinsk,55.3571,78.357,5.17,80,43,1.62,RU
Archidona,37.0965,-4.3887,16.67,81,100,1.8,ES
Matagami,49.7502,-77.6328,6.0,39,1,4.12,CA
Mayo,38.8876,-76.5119,18.0,25,1,1.2,US
Lichtenfels,50.1457,11.0593,3.89,55,63,0.45,DE
Port-Cartier,50.0334,-66.8654,6.11,87,90,5.66,CA
Saýat,38.7839,63.8803,19.0,37,0,4.12,TM
Plácido de Castro,-10.3353,-67.1856,22.83,88,100,1.32,BR
Tuatapere,-46.1333,167.6833,7.78,80,96,2.68,NZ
Tura,25.5198,90.2201,24.81,41,87,2.64,IN
Varhaug,58.6147,5.6457,2.78,88,19,3.22,NO
Hervey Bay,-25.2986,152.8535,24.44,72,22,4.12,AU
Celaya,20.5167,-100.8167,29.44,25,91,1.5,MX
Magway,20.15,94.9167,27.52,68,4,2.96,MM
Mitsamiouli,-11.3847,43.2844,27.13,75,49,4.23,KM
Nizhnevartovsk,60.9344,76.5531,1.0,93,92,2.0,RU
Ust'-Omchug,61.15,149.6333,-9.09,85,89,1.76,RU
Cockburn Town,21.4612,-71.1419,25.86,73,0,5.73,TC
Bengkulu,-3.8004,102.2655,23.92,88,87,1.84,ID
Cidreira,-30.1811,-50.2056,17.83,70,35,4.53,BR
Sinnamary,5.3833,-52.95,25.4,88,100,4.84,GF
Waipawa,-41.4122,175.5153,12.22,82,90,8.23,NZ
Macia,-25.0269,33.0989,18.5,95,1,2.19,MZ
Namwala,-15.7504,26.4384,17.2,78,25,1.06,ZM
Ahipara,-35.1667,173.1667,17.76,70,23,4.71,NZ
Malatya Province,38.5,38.0,15.0,44,0,2.06,TR
Kendallville,41.4414,-85.265,21.0,30,1,5.66,US
Buraidah,26.326,43.975,26.0,44,20,3.09,SA
Ostrovnoy,68.0531,39.5131,-1.43,71,100,7.02,RU
Port Blair,11.6667,92.75,27.05,74,67,1.95,IN
Skjervøy,70.0311,20.9714,1.91,62,89,3.44,NO
Tambura,5.6,27.4667,21.04,89,99,1.9,SS
Presidencia Roque Sáenz Peña,-26.7852,-60.4388,16.67,74,0,2.07,AR
Constitución,-35.3333,-72.4167,14.58,71,0,4.76,CL
Sucúa,-2.4667,-78.1667,22.0,88,75,2.06,EC
Ayagoz,47.9714,80.4392,7.54,40,97,1.3,KZ
Chābua,27.4825,95.1736,21.79,35,56,1.68,IN
Yar-Sale,66.8333,70.8333,0.81,97,100,5.7,RU
Pascagoula,30.3658,-88.5561,25.0,44,1,5.66,US
Kokoda,-8.8785,147.7407,28.27,68,96,0.97,PG
Bogotol,56.2078,89.5342,2.01,83,100,3.95,RU
Ayan,56.45,138.1667,-0.77,87,100,2.91,RU
Samfya,-11.3649,29.5565,19.76,74,86,2.21,ZM
Dembī Dolo,8.5333,34.8,14.07,87,100,1.89,ET
Bonthe,7.5264,-12.505,27.21,78,36,3.55,SL
Karīmpur,23.9667,88.6167,26.47,63,91,3.18,IN
Kampong Cham,11.9934,105.4635,26.88,80,100,3.22,KH
Marystown,47.1666,-55.1483,5.15,95,100,16.31,CA
Klaksvík,62.2266,-6.589,4.0,81,100,8.75,FO
Sibolga,1.7427,98.7792,25.42,85,97,1.32,ID
Şuraabad,40.8192,49.4687,12.0,94,0,1.03,AZ
Novy Urengoy,66.0833,76.6333,-0.83,94,96,6.51,RU
Saravan,39.7196,45.6483,16.0,63,75,4.12,AM
Mlonggo,-6.5333,110.7,27.0,83,20,2.06,ID
Xam Nua,20.4197,104.0439,18.87,99,100,0.92,LA
Harlingen,26.1906,-97.6961,27.22,74,90,10.29,US
Esperance,-33.8667,121.9,20.0,34,100,7.72,AU
Giehun,7.8833,-11.05,23.59,97,72,0.65,SL
Saint-Louis,16.3333,-15.0,31.0,33,0,1.03,SN
Grand Gaube,-20.0064,57.6608,25.0,82,100,3.13,MU
Kachīry,53.0675,76.1036,9.66,76,100,3.34,KZ
Codrington,-38.2667,141.9667,13.73,74,70,0.82,AU
Nizwá,22.9333,57.5333,25.71,25,88,0.43,OM
Baft,29.234,56.6057,15.21,23,50,0.39,IR
Örnsköldsvik,63.2909,18.7153,-3.0,86,99,1.54,SE
Great Yarmouth,52.6083,1.7305,6.11,87,20,1.03,GB
Ca Mau,9.1769,105.15,26.12,85,97,1.43,VN
Kiryat Shmona,33.2073,35.5721,19.0,72,75,4.12,IL
Usoke,-5.1667,32.35,20.0,94,20,0.17,TZ
Omboué,-1.5746,9.2618,26.12,86,100,2.44,GA
Poli,-3.3333,36.8,23.0,94,75,5.14,TZ
Arrondissement de Millau,44.0833,2.9167,12.78,76,0,1.03,FR
Ngunguru,-35.6167,174.5,21.11,69,13,2.68,NZ
Port Macquarie,-31.4333,152.9167,17.78,81,3,0.89,AU
Birjand,32.8663,59.2211,20.0,17,75,3.09,IR
Waingapu,-9.6567,120.2641,23.96,69,27,3.22,ID
Kontagora,10.3999,5.4695,29.69,46,38,1.97,NG
Inhambane,-23.865,35.3833,22.15,87,1,2.48,MZ
Fengzhen,40.4394,113.1536,5.17,24,7,4.47,CN
Vila,42.0304,-8.1588,11.11,90,92,0.82,PT
Manacapuru,-3.2997,-60.6206,23.0,100,75,0.51,BR
Callaway,30.153,-85.5699,25.0,64,1,5.66,US
Ukiah,39.1502,-123.2078,17.0,39,75,5.14,US
Rassvet,46.8333,40.75,4.44,97,67,4.16,RU
Itupiranga,-5.1347,-49.3267,23.97,95,98,0.51,BR
Fengrun,39.8333,118.1167,11.92,76,79,1.25,CN
Nynäshamn,58.9034,17.9479,2.78,55,90,3.6,SE
Celendín,-6.8703,-78.1517,14.0,82,90,3.6,PE
Beloha,-25.1667,45.05,22.08,73,6,2.55,MG
Ketchikan,55.3422,-131.6461,14.26,39,0,2.01,US
Port Pirie,-33.1833,138.0167,15.0,88,0,1.54,AU
Homer,59.6425,-151.5483,14.0,24,1,3.09,US
Vao,-22.6667,167.4833,23.13,65,64,8.6,NC
Imeni Zhelyabova,58.9544,36.5956,0.97,98,100,3.26,RU
Zhezkazgan,47.8043,67.7144,13.41,43,100,3.54,KZ
Taoyuan,32.2972,120.6167,16.67,95,100,1.63,CN
Viedma,-40.8135,-62.9967,16.39,42,0,4.03,AR
Rio Grande,-32.035,-52.0986,14.44,86,84,4.85,BR
Virginia Beach,36.8529,-75.978,21.0,26,20,3.09,US
Luganville,-15.5333,167.1667,27.47,74,88,3.63,VU
Bima,-8.4667,118.7167,23.52,84,37,1.79,ID
Ballinasloe,53.3275,-8.2194,7.97,84,87,3.75,IE
Tongling,30.95,117.7833,14.93,97,100,1.59,CN
Chekalin,54.0969,36.245,2.0,87,100,2.0,RU
São Raimundo Nonato,-9.0153,-42.6994,26.67,58,95,0.81,BR
Bathsheba,13.2167,-59.5167,27.0,57,40,6.69,BB
Fortuna,40.5982,-124.1573,13.0,58,75,4.63,US
Bratsk,56.1325,101.6142,-1.0,47,72,2.0,RU
Jumla,29.2747,82.1838,8.13,54,0,2.01,NP
Russell,32.3502,-85.1999,28.0,36,1,3.09,US
Zenzeli,45.9241,47.0474,9.15,76,100,2.93,RU
Turan,16.0678,108.2208,27.0,89,40,2.57,VN
Alice Springs,-23.7,133.8833,14.0,41,0,4.17,AU
West Richland,46.3043,-119.3614,22.0,23,90,4.12,US
Araçuaí,-16.8497,-42.0703,25.92,59,73,1.64,BR
Dul'durga,50.6761,113.5931,0.4,64,47,10.94,RU
Nador,35.174,-2.9287,16.0,82,0,1.54,MA
Beringovskiy,63.05,179.3167,0.45,92,76,2.44,RU
Altay,47.8667,88.1167,1.64,36,45,3.32,CN
Mannargudi,10.6667,79.4333,27.98,76,35,2.55,IN
Yabrūd,33.9674,36.6574,13.0,82,0,9.26,SY
Vila Velha,-20.3297,-40.2925,26.0,89,20,3.6,BR
Togur,58.3631,82.8265,3.89,94,100,4.22,RU
Port Lincoln,-34.7333,135.8667,17.17,72,95,2.97,AU
Aksu,41.1231,80.2644,14.48,22,89,2.24,CN
Husavik,66.0449,-17.3389,2.0,80,0,2.06,IS
South Lake Tahoe,38.9332,-119.9844,5.0,36,40,3.09,US
Zaysan,47.4667,84.8667,6.7,44,83,2.25,KZ
Broome,42.2506,-75.833,8.89,29,1,6.17,US
Kieta,-6.2167,155.6333,29.69,65,84,0.46,PG
Sungai Penuh,-2.0833,101.3833,17.47,95,95,1.64,ID
Lüshunkou,38.8,121.2667,12.0,94,90,3.0,CN
‘Āhuimanu,21.4447,-157.8378,27.0,54,20,3.6,US
Freeport,40.6576,-73.5832,15.0,21,1,5.14,US
Tutóia,-2.7619,-42.2744,26.22,81,96,3.44,BR
Xianyang,34.3378,108.7026,11.0,93,99,1.0,CN
Carmelo,-33.9892,-58.2856,17.22,82,0,0.51,UY
Charters Towers,-20.1,146.2667,21.18,60,87,5.49,AU
Navolato,24.7672,-107.6944,26.0,50,90,3.09,MX
San Cristobal,7.7669,-72.225,28.0,69,40,4.12,VE
Birao,10.2849,22.7882,27.78,32,10,0.56,CF
Sambava,-14.2667,50.1667,23.67,90,54,3.52,MG
